{"type":"FeatureCollection","features":[{"type":"Feature","geometry":{"type":"Point","coordinates":[134.06850583,34.26198583]},"properties":{"#property":"1","name":"高松市南部運動場","address":"高松市三谷町3125-4","telephoneNumber":"087-888-5507","referenceObject":"http://www.taka-spo.or.jp/nan1.html","note":"","availableDate":"月水木金土日","startTime":"09:00","endTime":"17:00","availableDateNote":"6～8月は19:00まで"}},{"type":"Feature","geometry":{"type":"Point","coordinates":[133.94031083,34.37425306]},"properties":{"#property":"2","name":"高松市亀水運動センター","address":"高松市亀水町458-1","telephoneNumber":"087-881-0182","referenceObject":"http://www.taka-spo.or.jp/tar4.html","note":"","availableDate":"月水木金土日","startTime":"09:00","endTime":"17:00","availableDateNote":"6～8月は19:00まで"}},{"type":"Feature","geometry":{"type":"Point","coordinates":[133.98070889,34.31016833]},"properties":{"#property":"3","name":"高松市西部運動センター","address":"高松市鬼無町鬼無10-2","telephoneNumber":"087-885-3344","referenceObject":"http://www.taka-spo.or.jp/sei3.html","note":"","availableDate":"月水木金土日","startTime":"09:00","endTime":"21:00","availableDateNote":"第１グランドは17:00（6～8月は19:00）まで、第２グラウンドは21:00まで"}},{"type":"Feature","geometry":{"type":"Point","coordinates":[134.07456167,34.15590139]},"properties":{"#property":"4","name":"高松市内場池運動センター","address":"高松市塩江町上西乙688-1地先","telephoneNumber":"087-879-8000","referenceObject":"http://www.taka-spo.or.jp/nai1.html","note":"","availableDate":"火水木金土日","startTime":"09:00","endTime":"17:00","availableDateNote":""}},{"type":"Feature","geometry":{"type":"Point","coordinates":[134.08072833,34.17599472]},"properties":{"#property":"5","name":"高松市ホタルと文化の里運動場","address":"高松市塩江町安原上602","telephoneNumber":"087-879-8000","referenceObject":"http://www.taka-spo.or.jp/htr1.html","note":"","availableDate":"火水木金土日","startTime":"09:00","endTime":"21:00","availableDateNote":""}},{"type":"Feature","geometry":{"type":"Point","coordinates":[134.01672472,34.26518194]},"properties":{"#property":"6","name":"高松市香川町大野河川敷運動場","address":"高松市香川町大野2606地先","telephoneNumber":"087-879-8000","referenceObject":"","note":"","availableDate":"月火水木金土日","startTime":"09:00","endTime":"17:00","availableDateNote":"6～8月は19:00まで"}},{"type":"Feature","geometry":{"type":"Point","coordinates":[134.020175,34.25387056]},"properties":{"#property":"7","name":"高松市香南町吉光河川敷運動場","address":"高松市香南町吉光735地先","telephoneNumber":"087-885-4611","referenceObject":"","note":"","availableDate":"月火水木金土日","startTime":"09:00","endTime":"17:00","availableDateNote":"6～8月は19:00まで"}},{"type":"Feature","geometry":{"type":"Point","coordinates":[134.12276722,34.32885611]},"properties":{"#property":"8","name":"高松市立東部運動公園","address":"高松市高松町1347番地1","telephoneNumber":"087-843-9446","referenceObject":"http://www.taka-spo.or.jp/tou1.html","note":"","availableDate":"月水木金土日","startTime":"09:00","endTime":"21:00","availableDateNote":""}},{"type":"Feature","geometry":{"type":"Point","coordinates":[134.0334246,34.2213369]},"properties":{"#property":"9","name":"高松市立りんくうスポーツ公園","address":"高松市香南町岡87番地1","telephoneNumber":"087-879-8000","referenceObject":"http://www.taka-spo.or.jp/rinkuu1.html","note":"","availableDate":"火水木金土日","startTime":"09:00","endTime":"21:00","availableDateNote":""}}]}