{"type":"FeatureCollection","features":[{"type":"Feature","geometry":{"type":"Point","coordinates":[134.03564917,34.25646556]},"properties":{"#property":"1","name":"浅野児童館","address":"高松市香川町浅野826-8","telephoneNumber":"087-888-2746","referenceObject":"http://www.city.takamatsu.kagawa.jp/kurashi/kurashi/shisetsu/jidoukan/index.html","note":"","availableDate":"月火水木金土","startTime":"09:30","endTime":"18:00","availableDateNote":"祝日、12/29～1/3は終日利用不可"}},{"type":"Feature","geometry":{"type":"Point","coordinates":[134.03429694,34.23880083]},"properties":{"#property":"2","name":"川東児童館","address":"高松市香川町川東上1747-6","telephoneNumber":"087-879-6638","referenceObject":"http://www.city.takamatsu.kagawa.jp/kurashi/kurashi/shisetsu/jidoukan/index.html","note":"","availableDate":"月火水木金土","startTime":"09:30","endTime":"18:00","availableDateNote":"祝日、12/29～1/3は終日利用不可"}},{"type":"Feature","geometry":{"type":"Point","coordinates":[134.00773583,34.24158528]},"properties":{"#property":"3","name":"ししまる館","address":"高松市香南町横井857-1","telephoneNumber":"087-879-0321","referenceObject":"http://www.city.takamatsu.kagawa.jp/kurashi/kurashi/shisetsu/jidoukan/index.html","note":"","availableDate":"月火水木金土","startTime":"09:30","endTime":"18:00","availableDateNote":"祝日、12/29～1/3は終日利用不可"}},{"type":"Feature","geometry":{"type":"Point","coordinates":[133.97195139,34.3078825]},"properties":{"#property":"4","name":"新居東児童館","address":"高松市国分寺町新居3371-1","telephoneNumber":"087-874-6705","referenceObject":"http://www.city.takamatsu.kagawa.jp/kurashi/kurashi/shisetsu/jidoukan/index.html","note":"","availableDate":"月火水木金土","startTime":"09:30","endTime":"18:00","availableDateNote":"祝日、12/29～1/3は終日利用不可"}},{"type":"Feature","geometry":{"type":"Point","coordinates":[133.94651444,34.30286583]},"properties":{"#property":"5","name":"国分児童館","address":"高松市国分寺町国分2150-7","telephoneNumber":"087-874-3830","referenceObject":"http://www.city.takamatsu.kagawa.jp/kurashi/kurashi/shisetsu/jidoukan/index.html","note":"","availableDate":"月火水木金土","startTime":"09:30","endTime":"18:00","availableDateNote":"祝日、12/29～1/3は終日利用不可"}},{"type":"Feature","geometry":{"type":"Point","coordinates":[133.97278056,34.27417667]},"properties":{"#property":"6","name":"福家児童館","address":"高松市国分寺町福家甲1951-1","telephoneNumber":"087-874-4954","referenceObject":"http://www.city.takamatsu.kagawa.jp/kurashi/kurashi/shisetsu/jidoukan/index.html","note":"","availableDate":"月火水木金土","startTime":"09:30","endTime":"18:00","availableDateNote":"祝日、12/29～1/3は終日利用不可"}},{"type":"Feature","geometry":{"type":"Point","coordinates":[133.94747694,34.28514278]},"properties":{"#property":"7","name":"新名・柏原児童館","address":"高松市国分寺町柏原613-1","telephoneNumber":"087-874-2985","referenceObject":"http://www.city.takamatsu.kagawa.jp/kurashi/kurashi/shisetsu/jidoukan/index.html","note":"","availableDate":"月火水木金土","startTime":"09:30","endTime":"18:00","availableDateNote":"祝日、12/29～1/3は終日利用不可"}},{"type":"Feature","geometry":{"type":"Point","coordinates":[134.01709194,34.21229528]},"properties":{"#property":"8","name":"さぬきこどもの国","address":"高松市香南町由佐3209","telephoneNumber":"087-879-0500","referenceObject":"https://www.sanuki.or.jp/","note":"","availableDate":"火水木金土日","startTime":"09:00","endTime":"17:00","availableDateNote":"12/30～1/1は終日利用不可"}},{"type":"Feature","geometry":{"type":"Point","coordinates":[134.05955,34.33998]},"properties":{"#property":"9","name":"高松市こども未来館","address":"高松市松島町一丁目１５番１号","telephoneNumber":"087-839-2571","referenceObject":"https://takamatsu-miraie.com","note":"","availableDate":"月水木金土日","startTime":"09:00","endTime":"21:00","availableDateNote":"日曜・祝日は17:00まで"}}]}