{"type":"FeatureCollection","features":[{"type":"Feature","geometry":{"type":"Point","coordinates":[134.03447778,34.34397]},"properties":{"#property":"1","name":"菊池寛記念館","address":"高松市昭和町一丁目2-20","telephoneNumber":"087-861-4502","referenceObject":"https://www.city.takamatsu.kagawa.jp/kurashi/kosodate/bunka/kikuchikan/index.html","note":"","availableDate":"火水木金土日","startTime":"09:00","endTime":"17:00","availableDateNote":"入館は16：30まで。月曜日（祝日の場合は翌平日）、年末年始（12/29～1/3）利用不可"}},{"type":"Feature","geometry":{"type":"Point","coordinates":[134.03447778,34.34397]},"properties":{"#property":"2","name":"高松市歴史資料館","address":"高松市昭和町一丁目2-20","telephoneNumber":"087-861-4520","referenceObject":"http://www.city.takamatsu.kagawa.jp/kurashi/kosodate/bunka/rekishi/index.html","note":"","availableDate":"火水木金土日","startTime":"09:00","endTime":"17:00","availableDateNote":"入館は16：30まで。月曜日（祝日の場合は翌平日）、年末年始（12/29～1/3）利用不可"}},{"type":"Feature","geometry":{"type":"Point","coordinates":[134.13403806,34.35271028]},"properties":{"#property":"3","name":"高松市石の民俗資料館","address":"高松市牟礼町牟礼1810","telephoneNumber":"087-845-8484","referenceObject":"http://www.city.takamatsu.kagawa.jp/kurashi/kosodate/bunka/ishi.html","note":"","availableDate":"火水木金土日","startTime":"09:00","endTime":"17:00","availableDateNote":"入館は16：30まで。月曜日（祝日の場合は翌平日）、年末年始（12/29～1/3）利用不可"}},{"type":"Feature","geometry":{"type":"Point","coordinates":[134.02162667,34.23924278]},"properties":{"#property":"4","name":"高松市香南歴史民俗郷土館","address":"高松市香南町由佐253-1","telephoneNumber":"087-879-0717","referenceObject":"http://www.city.takamatsu.kagawa.jp/kurashi/kosodate/bunka/konan.html","note":"","availableDate":"火水木金土日","startTime":"09:00","endTime":"17:00","availableDateNote":"入館は16：30まで。月曜日（祝日の場合は翌平日）、年末年始（12/29～1/3）利用不可"}},{"type":"Feature","geometry":{"type":"Point","coordinates":[133.94675889,34.30283944]},"properties":{"#property":"5","name":"高松市讃岐国分寺跡資料館","address":"高松市国分寺町国分2177-1","telephoneNumber":"087-874-8840","referenceObject":"http://www.city.takamatsu.kagawa.jp/kurashi/kosodate/bunka/sanuki.html","note":"","availableDate":"火水木金土日","startTime":"09:00","endTime":"16:30","availableDateNote":"入館は16：30まで。月曜日（祝日の場合は翌平日）、年末年始（12/29～1/3）利用不可"}},{"type":"Feature","geometry":{"type":"Point","coordinates":[134.0458211,34.3435211]},"properties":{"#property":"6","name":"高松市埋蔵文化財センター","address":"高松市番町一丁目5-1","telephoneNumber":"087-823-2714","referenceObject":"http://www.takamatsu-webmuseum.jp/maizou/","note":"","availableDate":"月火水木金","startTime":"09:00","endTime":"17:00","availableDateNote":"祝日、年末年始（12/29～1/3）利用不可"}}]}