{"type":"FeatureCollection","features":[{"type":"Feature","geometry":{"type":"Point","coordinates":[134.07262722,34.34291278]},"properties":{"#property":"2","name":"高松市福岡町プール","address":"高松市福岡町三丁目33-24","telephoneNumber":"087-823-7227","referenceObject":"http://www.taka-spo.or.jp/fup1.html","note":"","availableDate":"月水木金土日","startTime":"10:00","endTime":"20:30","availableDateNote":"7～8月は全曜日利用可能"}},{"type":"Feature","geometry":{"type":"Point","coordinates":[133.94382528,34.37395444]},"properties":{"#property":"3","name":"高松市亀水運動センター","address":"高松市亀水町458-1","telephoneNumber":"087-881-0182","referenceObject":"http://www.taka-spo.or.jp/tar8.html","note":"","availableDate":"月水木金土日","startTime":"09:00","endTime":"18:00","availableDateNote":"開設期間は７月20日から8月31日"}},{"type":"Feature","geometry":{"type":"Point","coordinates":[134.01623778,34.26085167]},"properties":{"#property":"4","name":"高松市かわなべスポーツセンター","address":"高松市川部町932-7","telephoneNumber":"087-885-4611","referenceObject":"http://www.taka-spo.or.jp/ssp4.html","note":"","availableDate":"月水木金土日","startTime":"13:00","endTime":"20:30","availableDateNote":"7～8月は全曜日利用可能、土、日、祝日及び7～8月は10:00から20:30まで"}},{"type":"Feature","geometry":{"type":"Point","coordinates":[134.03359917,34.19758944]},"properties":{"#property":"5","name":"高松市健康増進温浴施設","address":"高松市塩江町安原下第3-2074-2","telephoneNumber":"087-897-0781","referenceObject":"https://www.loop-shionoe.jp/loop/htm/","note":"","availableDate":"月水木金土日","startTime":"10:00","endTime":"20:30","availableDateNote":"7月第3火曜日～8月末日は全曜日利用可能"}},{"type":"Feature","geometry":{"type":"Point","coordinates":[134.04834833,34.27103972]},"properties":{"#property":"7","name":"高松市立仏生山公園温水プール","address":"高松市仏生山町甲2654-1","telephoneNumber":"087-888-1503","referenceObject":"http://www.taka-spo.or.jp/bup1.html","note":"","availableDate":"火水木金土日","startTime":"13:00","endTime":"20:30","availableDateNote":"7～8月は全曜日利用可能、土、日、祝日及び7～8月は10:00から20:30まで"}},{"type":"Feature","geometry":{"type":"Point","coordinates":[133.949585,34.27234083]},"properties":{"#property":"8","name":"高松市国分寺橘ノ丘総合運動公園","address":"高松市国分寺町新名2069-1","telephoneNumber":"087-874-4311","referenceObject":"http://www.taka-spo.or.jp/bg5.html","note":"","availableDate":"火水木金土日","startTime":"10:00","endTime":"21:00","availableDateNote":"開設期間は6～8月"}}]}