"#property","latitude","longitude","name","address","telephoneNumber","referenceObject","note"
"1","34.35965667","134.06521694","高松市朝日新町学校給食センター","高松市朝日新町26-25","087-811-6300",,
"2","34.26666278","134.09266","高松市立山田学校給食共同調理場","高松市川島東町1254","087-848-0168",,
"3","34.33569528","134.14251278","高松市立牟礼学校給食共同調理場","高松市牟礼町大町1576-1","087-845-2571",,
"4","34.3844225","134.13048139","高松市立庵治学校給食共同調理場","高松市庵治町782-2","087-871-2247",,
"5","34.24981944","134.03288722","高松市立香川学校給食共同調理場","高松市香川町浅野1283-3","087-879-5387",,
"6","34.24309222","134.00746361","高松市立香南学校給食共同調理場","高松市香南町横井800-1","087-879-2179",,
"7","34.295993","134.078751","高松市六条町学校給食センター","高松市六条町700番地","087-865-1060",,
