{"type":"FeatureCollection","features":[{"type":"Feature","geometry":{"type":"Point","coordinates":[134.04654,34.34277]},"properties":{"#property":"1","installationLocation":"高松市役所（１階ロビー）","address":"高松市番町一丁目8-15","telephoneNumber":"087-839-2011"}},{"type":"Feature","geometry":{"type":"Point","coordinates":[134.1393,34.3379]},"properties":{"#property":"2","installationLocation":"牟礼総合センター","address":"高松市牟礼町牟礼302-1","telephoneNumber":"087-845-2111"}},{"type":"Feature","geometry":{"type":"Point","coordinates":[134.03441,34.24147]},"properties":{"#property":"3","installationLocation":"香川総合センター","address":"高松市香川町川東上1865-13","telephoneNumber":"087-879-3211"}},{"type":"Feature","geometry":{"type":"Point","coordinates":[134.00078,34.34213]},"properties":{"#property":"4","installationLocation":"勝賀総合センター","address":"高松市香西南町476-1","telephoneNumber":"087-882-7770"}},{"type":"Feature","geometry":{"type":"Point","coordinates":[133.95981,34.29736]},"properties":{"#property":"5","installationLocation":"国分寺総合センター","address":"高松市国分寺町新居1298","telephoneNumber":"087-874-1111"}},{"type":"Feature","geometry":{"type":"Point","coordinates":[134.08556,34.27646]},"properties":{"#property":"6","installationLocation":"山田総合センター","address":"高松市川島本町191-2","telephoneNumber":"087-848-0165"}},{"type":"Feature","geometry":{"type":"Point","coordinates":[134.12635,34.38465]},"properties":{"#property":"7","installationLocation":"庵治支所","address":"高松市庵治町6393-5","telephoneNumber":"087-871-3111"}},{"type":"Feature","geometry":{"type":"Point","coordinates":[134.04134,34.19635]},"properties":{"#property":"8","installationLocation":"塩江支所","address":"高松市塩江町安原下第２号1645","telephoneNumber":"087-897-0131"}},{"type":"Feature","geometry":{"type":"Point","coordinates":[134.01298,34.23997]},"properties":{"#property":"9","installationLocation":"香南支所","address":"高松市香南町由佐1172","telephoneNumber":"087-879-3111"}},{"type":"Feature","geometry":{"type":"Point","coordinates":[134.03027,34.31387]},"properties":{"#property":"10","installationLocation":"鶴尾コミュニティセンター","address":"高松市田村町303-1","telephoneNumber":"087-866-3176"}},{"type":"Feature","geometry":{"type":"Point","coordinates":[134.05579,34.31189]},"properties":{"#property":"11","installationLocation":"太田コミュニティセンター","address":"高松市伏石町2016-37","telephoneNumber":"087-867-1139"}},{"type":"Feature","geometry":{"type":"Point","coordinates":[134.07621,34.31923]},"properties":{"#property":"12","installationLocation":"木太南コミュニティセンター","address":"高松市木太町1486","telephoneNumber":"087-865-4273"}},{"type":"Feature","geometry":{"type":"Point","coordinates":[134.10747,34.33566]},"properties":{"#property":"13","installationLocation":"古高松コミュニティセンター","address":"高松市高松町10-20","telephoneNumber":"087-841-6262"}},{"type":"Feature","geometry":{"type":"Point","coordinates":[134.07633,34.29766]},"properties":{"#property":"14","installationLocation":"林コミュニティセンター","address":"高松市林町329-1","telephoneNumber":"087-866-3405"}},{"type":"Feature","geometry":{"type":"Point","coordinates":[134.04096,34.28436]},"properties":{"#property":"15","installationLocation":"仏生山総合センター","address":"高松市仏生山町甲218-1","telephoneNumber":"087-889-4907"}},{"type":"Feature","geometry":{"type":"Point","coordinates":[134.05152,34.29044]},"properties":{"#property":"16","installationLocation":"多肥コミュニティセンター","address":"高松市多肥上町433-5","telephoneNumber":"087-889-4956"}},{"type":"Feature","geometry":{"type":"Point","coordinates":[134.02889,34.2907]},"properties":{"#property":"17","installationLocation":"一宮コミュニティセンター","address":"高松市一宮町838-1","telephoneNumber":"087-886-4793"}},{"type":"Feature","geometry":{"type":"Point","coordinates":[134.00553,34.28544]},"properties":{"#property":"18","installationLocation":"円座コミュニティセンター","address":"高松市円座町1622-1","telephoneNumber":"087-886-4993"}},{"type":"Feature","geometry":{"type":"Point","coordinates":[134.00578,34.32896]},"properties":{"#property":"19","installationLocation":"弦打コミュニティセンター","address":"高松市鶴市町356-3","telephoneNumber":"087-882-0285"}},{"type":"Feature","geometry":{"type":"Point","coordinates":[134.07206,34.33889]},"properties":{"#property":"20","installationLocation":"環境業務センター","address":"高松市木太町2282-1","telephoneNumber":"087-834-0389"}},{"type":"Feature","geometry":{"type":"Point","coordinates":[134.04149,34.31651]},"properties":{"#property":"21","installationLocation":"ゆめタウン高松","address":"高松市三条町608-1","telephoneNumber":"087-869-7500"}},{"type":"Feature","geometry":{"type":"Point","coordinates":[134.09208,34.32001]},"properties":{"#property":"22","installationLocation":"ヤマダ電機　家電住まいる館　ＹＡＭＡＤＡ高松春日本店","address":"高松市春日町218-1","telephoneNumber":"087-818-0101"}},{"type":"Feature","geometry":{"type":"Point","coordinates":[134.10167,34.34051]},"properties":{"#property":"23","installationLocation":"屋島レクザムフィールド（高松市屋島競技場）","address":"高松市屋島中町374-1","telephoneNumber":"087-802-7350"}}]}