{"type":"FeatureCollection","features":[{"type":"Feature","geometry":{"type":"Point","coordinates":[134.03447778,34.34397]},"properties":{"#property":"1","name":"高松市中央図書館","address":"高松市昭和町一丁目2-20","telephoneNumber":"087-861-4501","referenceObject":"http://library.city.takamatsu.kagawa.jp/index.asp","note":"","availableDate":"火水木金土日","startTime":"09:30","endTime":"19:00","availableDateNote":"土日祝は17：00まで。12/28　9：30～17：00。1/4　正午～17：00。月が休日の場合は翌日休館。毎月末日休館。12/29～1/3休館。資料特別整理期間（9月中の7日間程度）休館。"}},{"type":"Feature","geometry":{"type":"Point","coordinates":[134.14279028,34.34147278]},"properties":{"#property":"2","name":"高松市牟礼図書館","address":"高松市牟礼町牟礼130-2","telephoneNumber":"087-845-4113","referenceObject":"http://library.city.takamatsu.kagawa.jp/index.asp","note":"","availableDate":"火水木金土日","startTime":"09:30","endTime":"19:00","availableDateNote":"土日祝は17：00まで。12/28　9：30～17：00。1/4　正午～17：00。月が休日の場合は翌日休館。毎月末日休館。12/29～1/3休館。資料特別整理期間（9月中の7日間程度）休館。"}},{"type":"Feature","geometry":{"type":"Point","coordinates":[134.034575,34.24122444]},"properties":{"#property":"3","name":"高松市香川図書館","address":"高松市香川町川東上1865-13","telephoneNumber":"087-879-8970","referenceObject":"http://library.city.takamatsu.kagawa.jp/index.asp","note":"","availableDate":"月水木金土日","startTime":"09:30","endTime":"19:00","availableDateNote":"土日祝は17：00まで。12/28　9：30～17：00。1/4　正午～17：00。火が休日の場合は翌日休館。毎月末日休館。12/29～1/3休館。資料特別整理期間（9月中の7日間程度）休館。"}},{"type":"Feature","geometry":{"type":"Point","coordinates":[133.95999528,34.29706944]},"properties":{"#property":"4","name":"高松市国分寺図書館","address":"高松市国分寺町新居1298","telephoneNumber":"087-874-6309","referenceObject":"http://library.city.takamatsu.kagawa.jp/index.asp","note":"","availableDate":"火水木金土日","startTime":"09:30","endTime":"19:00","availableDateNote":"土日祝は17：00まで。12/28　9：30～17：00。1/4　正午～17：00。月が休日の場合は翌日休館。毎月末日休館。12/29～1/3休館。資料特別整理期間（9月中の7日間程度）休館。"}},{"type":"Feature","geometry":{"type":"Point","coordinates":[134.05955,34.33998]},"properties":{"#property":"5","name":"高松市夢みらい図書館","address":"高松市松島町一丁目15-1","telephoneNumber":"087-833-7727","referenceObject":"http://library.city.takamatsu.kagawa.jp/index.asp","note":"","availableDate":"月水木金土日","startTime":"09:30","endTime":"19:00","availableDateNote":"土日祝は17：00まで。12/28　9：30～17：00。1/4　正午～17：00。火が休日の場合は翌日休館。12/29～1/3休館。資料特別整理期間（9月中の7日間程度）休館。"}}]}