{"type":"FeatureCollection","features":[{"type":"Feature","geometry":{"type":"Point","coordinates":[134.05411351805583,34.3380529158747]},"properties":{"#property":"1","name":"グループホームやすらぎ","address":"高松市塩上町一丁目4-10","telephoneNumber":"","referenceObject":"","note":"","service":"認知症対応型共同生活介護","availableDate":"","startTime":"","endTime":"","availableDateNote":"","capacity":""}},{"type":"Feature","geometry":{"type":"Point","coordinates":[134.04691583,34.33364639]},"properties":{"#property":"2","name":"グループホーム　ひがん","address":"高松市藤塚町一丁目11-5","telephoneNumber":"","referenceObject":"","note":"","service":"認知症対応型共同生活介護","availableDate":"","startTime":"","endTime":"","availableDateNote":"","capacity":""}},{"type":"Feature","geometry":{"type":"Point","coordinates":[134.06113139,34.330325]},"properties":{"#property":"3","name":"グループホーム愛の里","address":"高松市上福岡町2005-11","telephoneNumber":"","referenceObject":"","note":"","service":"認知症対応型共同生活介護","availableDate":"","startTime":"","endTime":"","availableDateNote":"","capacity":""}},{"type":"Feature","geometry":{"type":"Point","coordinates":[133.99956528,34.30722639]},"properties":{"#property":"4","name":"グループホーム　オアシス香西","address":"高松市檀紙町1452-1","telephoneNumber":"","referenceObject":"","note":"","service":"認知症対応型共同生活介護","availableDate":"","startTime":"","endTime":"","availableDateNote":"","capacity":""}},{"type":"Feature","geometry":{"type":"Point","coordinates":[134.01455361,34.28434611]},"properties":{"#property":"5","name":"グループホーム春風荘","address":"高松市円座町1300-2","telephoneNumber":"","referenceObject":"","note":"","service":"認知症対応型共同生活介護","availableDate":"","startTime":"","endTime":"","availableDateNote":"","capacity":""}},{"type":"Feature","geometry":{"type":"Point","coordinates":[134.01459611,34.26092639]},"properties":{"#property":"6","name":"グループホームあい","address":"高松市川部町1300-1","telephoneNumber":"","referenceObject":"","note":"","service":"認知症対応型共同生活介護","availableDate":"","startTime":"","endTime":"","availableDateNote":"","capacity":""}},{"type":"Feature","geometry":{"type":"Point","coordinates":[134.02003833,34.31523417]},"properties":{"#property":"7","name":"西春日グループホーム","address":"高松市西春日町1511-1","telephoneNumber":"","referenceObject":"","note":"","service":"認知症対応型共同生活介護","availableDate":"","startTime":"","endTime":"","availableDateNote":"","capacity":""}},{"type":"Feature","geometry":{"type":"Point","coordinates":[134.02590722,34.31362611]},"properties":{"#property":"8","name":"グループホーム　ほおずき","address":"高松市松並町649-1","telephoneNumber":"","referenceObject":"","note":"","service":"認知症対応型共同生活介護","availableDate":"","startTime":"","endTime":"","availableDateNote":"","capacity":""}},{"type":"Feature","geometry":{"type":"Point","coordinates":[134.04190278,34.322645]},"properties":{"#property":"9","name":"グループホーム　暖暖","address":"高松市室新町1-8","telephoneNumber":"","referenceObject":"","note":"","service":"認知症対応型共同生活介護","availableDate":"","startTime":"","endTime":"","availableDateNote":"","capacity":""}},{"type":"Feature","geometry":{"type":"Point","coordinates":[134.05430722,34.32076472]},"properties":{"#property":"10","name":"グループホームすずらん","address":"高松市伏石町2008-5","telephoneNumber":"","referenceObject":"","note":"","service":"認知症対応型共同生活介護","availableDate":"","startTime":"","endTime":"","availableDateNote":"","capacity":""}},{"type":"Feature","geometry":{"type":"Point","coordinates":[134.04354472,34.30706611]},"properties":{"#property":"11","name":"グループホーム　こすもす","address":"高松市太田下町1868-2","telephoneNumber":"","referenceObject":"","note":"","service":"認知症対応型共同生活介護","availableDate":"","startTime":"","endTime":"","availableDateNote":"","capacity":""}},{"type":"Feature","geometry":{"type":"Point","coordinates":[134.03901194,34.30438028]},"properties":{"#property":"12","name":"グループホーム　花もめん","address":"高松市太田下町2020-1","telephoneNumber":"","referenceObject":"","note":"","service":"認知症対応型共同生活介護","availableDate":"","startTime":"","endTime":"","availableDateNote":"","capacity":""}},{"type":"Feature","geometry":{"type":"Point","coordinates":[134.01248361,34.30271583]},"properties":{"#property":"13","name":"愛の家グループホーム高松成合","address":"高松市成合町581","telephoneNumber":"","referenceObject":"","note":"","service":"認知症対応型共同生活介護","availableDate":"","startTime":"","endTime":"","availableDateNote":"","capacity":""}},{"type":"Feature","geometry":{"type":"Point","coordinates":[134.02054167,34.29199222]},"properties":{"#property":"14","name":"らく楽一宮","address":"高松市一宮町1568-1","telephoneNumber":"","referenceObject":"","note":"","service":"認知症対応型共同生活介護","availableDate":"","startTime":"","endTime":"","availableDateNote":"","capacity":""}},{"type":"Feature","geometry":{"type":"Point","coordinates":[134.078855,34.32359278]},"properties":{"#property":"15","name":"グループホーム  木太","address":"高松市木太町3749-3","telephoneNumber":"","referenceObject":"","note":"","service":"認知症対応型共同生活介護","availableDate":"","startTime":"","endTime":"","availableDateNote":"","capacity":""}},{"type":"Feature","geometry":{"type":"Point","coordinates":[134.09350611,34.33139778]},"properties":{"#property":"16","name":"グループホーム吉祥","address":"高松市春日町1336-1","telephoneNumber":"","referenceObject":"","note":"","service":"認知症対応型共同生活介護","availableDate":"","startTime":"","endTime":"","availableDateNote":"","capacity":""}},{"type":"Feature","geometry":{"type":"Point","coordinates":[134.08769306,34.32543444]},"properties":{"#property":"17","name":"グループホーム  春日","address":"高松市春日町671-1","telephoneNumber":"","referenceObject":"","note":"","service":"認知症対応型共同生活介護","availableDate":"","startTime":"","endTime":"","availableDateNote":"","capacity":""}},{"type":"Feature","geometry":{"type":"Point","coordinates":[134.09985583,34.32825389]},"properties":{"#property":"18","name":"グループホーム真珠の湯","address":"高松市新田町甲2712-1","telephoneNumber":"","referenceObject":"","note":"","service":"認知症対応型共同生活介護","availableDate":"","startTime":"","endTime":"","availableDateNote":"","capacity":""}},{"type":"Feature","geometry":{"type":"Point","coordinates":[134.10206972,34.31631917]},"properties":{"#property":"19","name":"グループホーム　ミモザ","address":"高松市新田町甲2181-1","telephoneNumber":"","referenceObject":"","note":"","service":"認知症対応型共同生活介護","availableDate":"","startTime":"","endTime":"","availableDateNote":"","capacity":""}},{"type":"Feature","geometry":{"type":"Point","coordinates":[134.11879528,34.34113889]},"properties":{"#property":"20","name":"グループホーム　エーデルワイス","address":"高松市高松町2160-1","telephoneNumber":"","referenceObject":"","note":"","service":"認知症対応型共同生活介護","availableDate":"","startTime":"","endTime":"","availableDateNote":"","capacity":""}},{"type":"Feature","geometry":{"type":"Point","coordinates":[134.11294889,34.33625889]},"properties":{"#property":"21","name":"ニチイケアセンター古高松","address":"高松市高松町1718-2","telephoneNumber":"","referenceObject":"","note":"","service":"認知症対応型共同生活介護","availableDate":"","startTime":"","endTime":"","availableDateNote":"","capacity":""}},{"type":"Feature","geometry":{"type":"Point","coordinates":[134.05931889,34.28601333]},"properties":{"#property":"22","name":"認知症高齢者グループホーム第三若葉荘","address":"高松市上林町822-1","telephoneNumber":"","referenceObject":"","note":"","service":"認知症対応型共同生活介護","availableDate":"","startTime":"","endTime":"","availableDateNote":"","capacity":""}},{"type":"Feature","geometry":{"type":"Point","coordinates":[134.09948167,34.2964575]},"properties":{"#property":"23","name":"グループホーム邑","address":"高松市前田西町1080-18","telephoneNumber":"","referenceObject":"","note":"","service":"認知症対応型共同生活介護","availableDate":"","startTime":"","endTime":"","availableDateNote":"","capacity":""}},{"type":"Feature","geometry":{"type":"Point","coordinates":[134.10604083,34.25982833]},"properties":{"#property":"24","name":"グループホーム　らく楽十川","address":"高松市十川東町938-1","telephoneNumber":"","referenceObject":"","note":"","service":"認知症対応型共同生活介護","availableDate":"","startTime":"","endTime":"","availableDateNote":"","capacity":""}},{"type":"Feature","geometry":{"type":"Point","coordinates":[134.08590861,34.27957861]},"properties":{"#property":"25","name":"グループホーム　うちんく","address":"高松市川島本町276-1","telephoneNumber":"","referenceObject":"","note":"","service":"認知症対応型共同生活介護","availableDate":"","startTime":"","endTime":"","availableDateNote":"","capacity":""}},{"type":"Feature","geometry":{"type":"Point","coordinates":[134.06016611,34.28301083]},"properties":{"#property":"26","name":"認知症高齢者グループホーム第五若葉荘","address":"高松市三谷町1643-1","telephoneNumber":"","referenceObject":"","note":"","service":"認知症対応型共同生活介護","availableDate":"","startTime":"","endTime":"","availableDateNote":"","capacity":""}},{"type":"Feature","geometry":{"type":"Point","coordinates":[134.06000833,34.26881528]},"properties":{"#property":"27","name":"認知症高齢者グループホーム第六若葉荘","address":"高松市三谷町4551-6","telephoneNumber":"","referenceObject":"","note":"","service":"認知症対応型共同生活介護","availableDate":"","startTime":"","endTime":"","availableDateNote":"","capacity":""}},{"type":"Feature","geometry":{"type":"Point","coordinates":[134.06097722,34.28093889]},"properties":{"#property":"28","name":"認知症高齢者グループホーム若葉荘","address":"高松市三谷町1654-5","telephoneNumber":"","referenceObject":"","note":"","service":"認知症対応型共同生活介護","availableDate":"","startTime":"","endTime":"","availableDateNote":"","capacity":""}},{"type":"Feature","geometry":{"type":"Point","coordinates":[134.05028639,34.28840722]},"properties":{"#property":"29","name":"グループホーム　そよの里","address":"高松市多肥上町504-2","telephoneNumber":"","referenceObject":"","note":"","service":"認知症対応型共同生活介護","availableDate":"","startTime":"","endTime":"","availableDateNote":"","capacity":""}},{"type":"Feature","geometry":{"type":"Point","coordinates":[133.99654528,34.33550917]},"properties":{"#property":"30","name":"グループホーム  きらら","address":"高松市香西南町37-2","telephoneNumber":"","referenceObject":"","note":"","service":"認知症対応型共同生活介護","availableDate":"","startTime":"","endTime":"","availableDateNote":"","capacity":""}},{"type":"Feature","geometry":{"type":"Point","coordinates":[133.99665667,34.32829056]},"properties":{"#property":"31","name":"グループホーム  ひまわり","address":"高松市鬼無町藤井126-1","telephoneNumber":"","referenceObject":"","note":"","service":"認知症対応型共同生活介護","availableDate":"","startTime":"","endTime":"","availableDateNote":"","capacity":""}},{"type":"Feature","geometry":{"type":"Point","coordinates":[133.9959125,34.31449194]},"properties":{"#property":"32","name":"グループホーム菜の花","address":"高松市飯田町104-1","telephoneNumber":"","referenceObject":"","note":"","service":"認知症対応型共同生活介護","availableDate":"","startTime":"","endTime":"","availableDateNote":"","capacity":""}},{"type":"Feature","geometry":{"type":"Point","coordinates":[134.00077028,34.32354944]},"properties":{"#property":"33","name":"悠久の里　高松西","address":"高松市飯田町1334-4","telephoneNumber":"","referenceObject":"","note":"","service":"認知症対応型共同生活介護","availableDate":"","startTime":"","endTime":"","availableDateNote":"","capacity":""}},{"type":"Feature","geometry":{"type":"Point","coordinates":[133.99278167,34.24929111]},"properties":{"#property":"34","name":"グループホーム　悠悠香南","address":"高松市香南町西庄182-1","telephoneNumber":"","referenceObject":"","note":"","service":"認知症対応型共同生活介護","availableDate":"","startTime":"","endTime":"","availableDateNote":"","capacity":""}},{"type":"Feature","geometry":{"type":"Point","coordinates":[133.98967361,34.24460806]},"properties":{"#property":"35","name":"グループホーム　悠悠せんねん村","address":"高松市香南町西庄695-1","telephoneNumber":"","referenceObject":"","note":"","service":"認知症対応型共同生活介護","availableDate":"","startTime":"","endTime":"","availableDateNote":"","capacity":""}},{"type":"Feature","geometry":{"type":"Point","coordinates":[134.08689778,34.17937056]},"properties":{"#property":"36","name":"グループホーム　悠悠不動の滝","address":"高松市塩江町安原上東203-6","telephoneNumber":"","referenceObject":"","note":"","service":"認知症対応型共同生活介護","availableDate":"","startTime":"","endTime":"","availableDateNote":"","capacity":""}},{"type":"Feature","geometry":{"type":"Point","coordinates":[134.02720028,34.26443722]},"properties":{"#property":"37","name":"ひまわりの家","address":"高松市香川町大野901-1","telephoneNumber":"","referenceObject":"","note":"","service":"認知症対応型共同生活介護","availableDate":"","startTime":"","endTime":"","availableDateNote":"","capacity":""}},{"type":"Feature","geometry":{"type":"Point","coordinates":[134.03030917,34.24249278]},"properties":{"#property":"38","name":"グループホーム　ほととぎす","address":"高松市香川町川東下672-5","telephoneNumber":"","referenceObject":"","note":"","service":"認知症対応型共同生活介護","availableDate":"","startTime":"","endTime":"","availableDateNote":"","capacity":""}},{"type":"Feature","geometry":{"type":"Point","coordinates":[134.15104,34.3304825]},"properties":{"#property":"39","name":"高齢者グループホームプレスマン","address":"高松市牟礼町原932-1","telephoneNumber":"","referenceObject":"","note":"","service":"認知症対応型共同生活介護","availableDate":"","startTime":"","endTime":"","availableDateNote":"","capacity":""}},{"type":"Feature","geometry":{"type":"Point","coordinates":[133.95774722,34.29202444]},"properties":{"#property":"40","name":"グループホームあいむ","address":"高松市国分寺町新名478-1","telephoneNumber":"","referenceObject":"","note":"","service":"認知症対応型共同生活介護","availableDate":"","startTime":"","endTime":"","availableDateNote":"","capacity":""}},{"type":"Feature","geometry":{"type":"Point","coordinates":[133.996948,34.293583]},"properties":{"#property":"41","name":"グループホーム語り愛","address":"高松市円座町字道下288-1","telephoneNumber":"","referenceObject":"","note":"","service":"認知症対応型共同生活介護","availableDate":"","startTime":"","endTime":"","availableDateNote":"","capacity":""}},{"type":"Feature","geometry":{"type":"Point","coordinates":[134.003803,34.288677]},"properties":{"#property":"42","name":"ネムの木　グループホーム　円座","address":"香川県高松市円座町94-1","telephoneNumber":"","referenceObject":"","note":"","service":"認知症対応型共同生活介護","availableDate":"","startTime":"","endTime":"","availableDateNote":"","capacity":""}},{"type":"Feature","geometry":{"type":"Point","coordinates":[134.108288,34.3239]},"properties":{"#property":"43","name":"グループホーム　らく楽新田","address":"高松市新田町甲1144-3","telephoneNumber":"","referenceObject":"","note":"","service":"認知症対応型共同生活介護","availableDate":"","startTime":"","endTime":"","availableDateNote":"","capacity":""}},{"type":"Feature","geometry":{"type":"Point","coordinates":[134.139091,34.377899]},"properties":{"#property":"44","name":"グループホーム　悠悠庵治の太陽","address":"高松市庵治町3822-１","telephoneNumber":"","referenceObject":"","note":"","service":"認知症対応型共同生活介護","availableDate":"","startTime":"","endTime":"","availableDateNote":"","capacity":""}},{"type":"Feature","geometry":{"type":"Point","coordinates":[134.069126,34.342305]},"properties":{"#property":"45","name":"グループホーム　リーラの家さくら","address":"高松市福岡町四丁目12-18","telephoneNumber":"","referenceObject":"","note":"","service":"認知症対応型共同生活介護","availableDate":"","startTime":"","endTime":"","availableDateNote":"","capacity":""}},{"type":"Feature","geometry":{"type":"Point","coordinates":[134.09462,34.350465]},"properties":{"#property":"46","name":"リーラの家　やしま","address":"高松市屋島西町893-1","telephoneNumber":"","referenceObject":"","note":"","service":"認知症対応型共同生活介護","availableDate":"","startTime":"","endTime":"","availableDateNote":"","capacity":""}},{"type":"Feature","geometry":{"type":"Point","coordinates":[134.003625,34.322026]},"properties":{"#property":"47","name":"グループホーム　オアシスＫ","address":"高松市飯田町705","telephoneNumber":"","referenceObject":"","note":"","service":"認知症対応型共同生活介護","availableDate":"","startTime":"","endTime":"","availableDateNote":"","capacity":""}},{"type":"Feature","geometry":{"type":"Point","coordinates":[134.0400804522808,34.345285887234]},"properties":{"#property":"48","name":"グループホーム新番丁","address":"高松市番町二丁目14-2","telephoneNumber":"","referenceObject":"","note":"","service":"認知症対応型共同生活介護","availableDate":"","startTime":"","endTime":"","availableDateNote":"","capacity":""}},{"type":"Feature","geometry":{"type":"Point","coordinates":[134.06037192666588,34.34331422027985]},"properties":{"#property":"49","name":"グループホーム花クッカ","address":"高松市松福町一丁目12-3","telephoneNumber":"","referenceObject":"","note":"","service":"認知症対応型共同生活介護","availableDate":"","startTime":"","endTime":"","availableDateNote":"","capacity":""}},{"type":"Feature","geometry":{"type":"Point","coordinates":[134.10228897180178,34.31613769511954]},"properties":{"#property":"50","name":"グループホームアカシア","address":"高松市新田町甲2180-1","telephoneNumber":"","referenceObject":"","note":"","service":"認知症対応型共同生活介護","availableDate":"","startTime":"","endTime":"","availableDateNote":"","capacity":""}},{"type":"Feature","geometry":{"type":"Point","coordinates":[133.9598471880089,34.29832458520862]},"properties":{"#property":"51","name":"グループホームアイムの杜","address":"高松市国分寺町新居1339-3","telephoneNumber":"","referenceObject":"","note":"","service":"認知症対応型共同生活介護","availableDate":"","startTime":"","endTime":"","availableDateNote":"","capacity":""}}]}