{"type":"FeatureCollection","features":[{"type":"Feature","geometry":{"type":"Point","coordinates":[134.0302289,34.31382333]},"properties":{"#property":"1","name":"鶴尾出張所","address":"高松市田村町303-1","telephoneNumber":"087-866-1793","referenceObject":"http://www.city.takamatsu.kagawa.jp/kurashi/kurashi/shisetsu/shisho/sougou_center.html","note":"","availableDate":"月火水木金","startTime":"09:00","endTime":"17:00","availableDateNote":"国民の祝日に関する法律に規定する休日及び年末年始（１２月２９日から翌年の１月３日まで）は利用不可。"}},{"type":"Feature","geometry":{"type":"Point","coordinates":[134.05385,34.31875]},"properties":{"#property":"2","name":"太田出張所","address":"高松市伏石町2016-37","telephoneNumber":"087-866-1796","referenceObject":"http://www.city.takamatsu.kagawa.jp/kurashi/kurashi/shisetsu/shisho/sougou_center.html","note":"","availableDate":"月火水木金","startTime":"09:00","endTime":"17:00","availableDateNote":"国民の祝日に関する法律に規定する休日及び年末年始（１２月２９日から翌年の１月３日まで）は利用不可。"}},{"type":"Feature","geometry":{"type":"Point","coordinates":[134.0767078,34.32624528]},"properties":{"#property":"3","name":"木太出張所","address":"高松市木太町3480-2","telephoneNumber":"087-834-5485","referenceObject":"http://www.city.takamatsu.kagawa.jp/kurashi/kurashi/shisetsu/shisho/sougou_center.html","note":"","availableDate":"月火水木金","startTime":"09:00","endTime":"17:00","availableDateNote":"国民の祝日に関する法律に規定する休日及び年末年始（１２月２９日から翌年の１月３日まで）は利用不可。"}},{"type":"Feature","geometry":{"type":"Point","coordinates":[134.1075131,34.33566417]},"properties":{"#property":"4","name":"古高松出張所","address":"高松市高松町10-20","telephoneNumber":"087-841-6261","referenceObject":"http://www.city.takamatsu.kagawa.jp/kurashi/kurashi/shisetsu/shisho/sougou_center.html","note":"","availableDate":"月火水木金","startTime":"09:00","endTime":"17:00","availableDateNote":"国民の祝日に関する法律に規定する休日及び年末年始（１２月２９日から翌年の１月３日まで）は利用不可。"}},{"type":"Feature","geometry":{"type":"Point","coordinates":[134.1012994,34.34371056]},"properties":{"#property":"5","name":"屋島出張所","address":"高松市屋島中町449-1","telephoneNumber":"087-841-6258","referenceObject":"http://www.city.takamatsu.kagawa.jp/kurashi/kurashi/shisetsu/shisho/sougou_center.html","note":"","availableDate":"月火水木金","startTime":"09:00","endTime":"17:00","availableDateNote":"国民の祝日に関する法律に規定する休日及び年末年始（１２月２９日から翌年の１月３日まで）は利用不可。"}},{"type":"Feature","geometry":{"type":"Point","coordinates":[134.1125833,34.29657167]},"properties":{"#property":"6","name":"前田出張所","address":"高松市前田東町838","telephoneNumber":"087-847-5897","referenceObject":"http://www.city.takamatsu.kagawa.jp/kurashi/kurashi/shisetsu/shisho/sougou_center.html","note":"","availableDate":"月火水木金","startTime":"09:00","endTime":"17:00","availableDateNote":"国民の祝日に関する法律に規定する休日及び年末年始（１２月２９日から翌年の１月３日まで）は利用不可。"}},{"type":"Feature","geometry":{"type":"Point","coordinates":[134.0894683,34.30697278]},"properties":{"#property":"7","name":"川添出張所","address":"高松市元山町136-4","telephoneNumber":"087-847-5893","referenceObject":"http://www.city.takamatsu.kagawa.jp/kurashi/kurashi/shisetsu/shisho/sougou_center.html","note":"","availableDate":"月火水木金","startTime":"09:00","endTime":"17:00","availableDateNote":"国民の祝日に関する法律に規定する休日及び年末年始（１２月２９日から翌年の１月３日まで）は利用不可。"}},{"type":"Feature","geometry":{"type":"Point","coordinates":[134.07625,34.29778]},"properties":{"#property":"8","name":"林出張所","address":"高松市林町329-1","telephoneNumber":"087-866-2095","referenceObject":"http://www.city.takamatsu.kagawa.jp/kurashi/kurashi/shisetsu/shisho/sougou_center.html","note":"","availableDate":"月火水木金","startTime":"09:00","endTime":"17:00","availableDateNote":"国民の祝日に関する法律に規定する休日及び年末年始（１２月２９日から翌年の１月３日まで）は利用不可。"}},{"type":"Feature","geometry":{"type":"Point","coordinates":[134.0694783,34.27771639]},"properties":{"#property":"9","name":"三谷出張所","address":"高松市三谷町1201-1","telephoneNumber":"087-889-4914","referenceObject":"http://www.city.takamatsu.kagawa.jp/kurashi/kurashi/shisetsu/shisho/sougou_center.html","note":"","availableDate":"月火水木金","startTime":"09:00","endTime":"17:00","availableDateNote":"国民の祝日に関する法律に規定する休日及び年末年始（１２月２９日から翌年の１月３日まで）は利用不可。"}},{"type":"Feature","geometry":{"type":"Point","coordinates":[134.0289356,34.29067333]},"properties":{"#property":"10","name":"一宮出張所","address":"高松市一宮町838-1","telephoneNumber":"087-886-0811","referenceObject":"http://www.city.takamatsu.kagawa.jp/kurashi/kurashi/shisetsu/shisho/sougou_center.html","note":"","availableDate":"月火水木金","startTime":"09:00","endTime":"17:00","availableDateNote":"国民の祝日に関する法律に規定する休日及び年末年始（１２月２９日から翌年の１月３日まで）は利用不可。"}},{"type":"Feature","geometry":{"type":"Point","coordinates":[134.0514667,34.29044611]},"properties":{"#property":"11","name":"多肥出張所","address":"高松市多肥上町433-5","telephoneNumber":"087-889-4913","referenceObject":"http://www.city.takamatsu.kagawa.jp/kurashi/kurashi/shisetsu/shisho/sougou_center.html","note":"","availableDate":"月火水木金","startTime":"09:00","endTime":"17:00","availableDateNote":"国民の祝日に関する法律に規定する休日及び年末年始（１２月２９日から翌年の１月３日まで）は利用不可。"}},{"type":"Feature","geometry":{"type":"Point","coordinates":[134.0099878,34.26941694]},"properties":{"#property":"12","name":"川岡出張所","address":"高松市川部町486-3","telephoneNumber":"087-886-0814","referenceObject":"http://www.city.takamatsu.kagawa.jp/kurashi/kurashi/shisetsu/shisho/sougou_center.html","note":"","availableDate":"月火水木金","startTime":"09:00","endTime":"17:00","availableDateNote":"国民の祝日に関する法律に規定する休日及び年末年始（１２月２９日から翌年の１月３日まで）は利用不可。"}},{"type":"Feature","geometry":{"type":"Point","coordinates":[134.0054711,34.28543722]},"properties":{"#property":"13","name":"円座出張所","address":"高松市円座町1622-1","telephoneNumber":"087-885-2411","referenceObject":"http://www.city.takamatsu.kagawa.jp/kurashi/kurashi/shisetsu/shisho/sougou_center.html","note":"","availableDate":"月火水木金","startTime":"09:00","endTime":"17:00","availableDateNote":"国民の祝日に関する法律に規定する休日及び年末年始（１２月２９日から翌年の１月３日まで）は利用不可。"}},{"type":"Feature","geometry":{"type":"Point","coordinates":[133.9946686,34.30092139]},"properties":{"#property":"14","name":"檀紙出張所","address":"高松市御厩町775-1","telephoneNumber":"087-886-0815","referenceObject":"http://www.city.takamatsu.kagawa.jp/kurashi/kurashi/shisetsu/shisho/sougou_center.html","note":"","availableDate":"月火水木金","startTime":"09:00","endTime":"17:00","availableDateNote":"国民の祝日に関する法律に規定する休日及び年末年始（１２月２９日から翌年の１月３日まで）は利用不可。"}},{"type":"Feature","geometry":{"type":"Point","coordinates":[134.005738,34.329246]},"properties":{"#property":"15","name":"弦打出張所","address":"高松市鶴市町356-3","telephoneNumber":"087-882-0891","referenceObject":"http://www.city.takamatsu.kagawa.jp/kurashi/kurashi/shisetsu/shisho/sougou_center.html","note":"","availableDate":"月火水木金","startTime":"09:00","endTime":"17:00","availableDateNote":"国民の祝日に関する法律に規定する休日及び年末年始（１２月２９日から翌年の１月３日まで）は利用不可。"}},{"type":"Feature","geometry":{"type":"Point","coordinates":[133.993302,34.327365]},"properties":{"#property":"16","name":"鬼無出張所","address":"高松市鬼無町佐藤31-3","telephoneNumber":"087-882-0809","referenceObject":"http://www.city.takamatsu.kagawa.jp/kurashi/kurashi/shisetsu/shisho/sougou_center.html","note":"","availableDate":"月火水木金","startTime":"09:00","endTime":"17:00","availableDateNote":"国民の祝日に関する法律に規定する休日及び年末年始（１２月２９日から翌年の１月３日まで）は利用不可。"}},{"type":"Feature","geometry":{"type":"Point","coordinates":[133.968806,34.359028]},"properties":{"#property":"17","name":"下笠居出張所","address":"高松市生島町353-1","telephoneNumber":"087-882-0868","referenceObject":"http://www.city.takamatsu.kagawa.jp/kurashi/kurashi/shisetsu/shisho/sougou_center.html","note":"","availableDate":"月火水木金","startTime":"09:00","endTime":"17:00","availableDateNote":"国民の祝日に関する法律に規定する休日及び年末年始（１２月２９日から翌年の１月３日まで）は利用不可。"}},{"type":"Feature","geometry":{"type":"Point","coordinates":[134.054250875989,34.42261118280801]},"properties":{"#property":"18","name":"男木出張所","address":"高松市男木町1988","telephoneNumber":"087-873-0001","referenceObject":"http://www.city.takamatsu.kagawa.jp/kurashi/kurashi/shisetsu/shisho/sougou_center.html","note":"","availableDate":"月火水木金","startTime":"09:00","endTime":"16:45","availableDateNote":"国民の祝日に関する法律に規定する休日及び年末年始（１２月２９日から翌年の１月３日まで）は利用不可。"}},{"type":"Feature","geometry":{"type":"Point","coordinates":[134.0517525,34.39210389]},"properties":{"#property":"19","name":"女木出張所","address":"高松市女木町203-1","telephoneNumber":"087-873-0101","referenceObject":"http://www.city.takamatsu.kagawa.jp/kurashi/kurashi/shisetsu/shisho/sougou_center.html","note":"","availableDate":"月火水木金","startTime":"09:00","endTime":"17:00","availableDateNote":"国民の祝日に関する法律に規定する休日及び年末年始（１２月２９日から翌年の１月３日まで）は利用不可。"}}]}