{"type":"FeatureCollection","features":[{"type":"Feature","geometry":{"type":"Point","coordinates":[134.03929,34.27201]},"properties":{"#property":"1","name":"高松市岡の上農村公園","address":"高松市香川町浅野61-3","building":"便所12㎡","note":"","":"","_1":"","_2":"","_3":"","_4":"","_5":"","_6":"","_7":"","_8":"","_9":"","_10":"","_11":"","_12":"","_13":"","_14":"","_15":"","_16":"","_17":"","_18":"","_19":""}},{"type":"Feature","geometry":{"type":"Point","coordinates":[134.03364,34.24807]},"properties":{"#property":"2","name":"高松市伽羅土農村公園","address":"高松市香川町浅野1302-1","building":"便所12㎡","note":"","":"","_1":"","_2":"","_3":"","_4":"","_5":"","_6":"","_7":"","_8":"","_9":"","_10":"","_11":"","_12":"","_13":"","_14":"","_15":"","_16":"","_17":"","_18":"","_19":""}},{"type":"Feature","geometry":{"type":"Point","coordinates":[134.04176,34.25372]},"properties":{"#property":"3","name":"高松市宮の前農村公園","address":"高松市香川町浅野2080-5","building":"便所12㎡","note":"","":"","_1":"","_2":"","_3":"","_4":"","_5":"","_6":"","_7":"","_8":"","_9":"","_10":"","_11":"","_12":"","_13":"","_14":"","_15":"","_16":"","_17":"","_18":"","_19":""}},{"type":"Feature","geometry":{"type":"Point","coordinates":[134.04927,34.23687]},"properties":{"#property":"4","name":"高松市流田農村公園","address":"高松市香川町川内原1340-2","building":"便所12㎡","note":"","":"","_1":"","_2":"","_3":"","_4":"","_5":"","_6":"","_7":"","_8":"","_9":"","_10":"","_11":"","_12":"","_13":"","_14":"","_15":"","_16":"","_17":"","_18":"","_19":""}},{"type":"Feature","geometry":{"type":"Point","coordinates":[134.05197,34.22368]},"properties":{"#property":"5","name":"高松市光栄農村公園","address":"高松市香川町川内原2203","building":"東屋","note":"","":"","_1":"","_2":"","_3":"","_4":"","_5":"","_6":"","_7":"","_8":"","_9":"","_10":"","_11":"","_12":"","_13":"","_14":"","_15":"","_16":"","_17":"","_18":"","_19":""}},{"type":"Feature","geometry":{"type":"Point","coordinates":[134.03617,34.24206]},"properties":{"#property":"6","name":"高松市龍満池親水公園","address":"高松市香川町川東上1865-11","building":"便所","note":"駐車場有","":"","_1":"","_2":"","_3":"","_4":"","_5":"","_6":"","_7":"","_8":"","_9":"","_10":"","_11":"","_12":"","_13":"","_14":"","_15":"","_16":"","_17":"","_18":"","_19":""}},{"type":"Feature","geometry":{"type":"Point","coordinates":[134.02534,34.24939]},"properties":{"#property":"7","name":"高松市梅ヶ井農村公園","address":"高松市香川町川東下1397","building":"便所12㎡","note":"","":"","_1":"","_2":"","_3":"","_4":"","_5":"","_6":"","_7":"","_8":"","_9":"","_10":"","_11":"","_12":"","_13":"","_14":"","_15":"","_16":"","_17":"","_18":"","_19":""}},{"type":"Feature","geometry":{"type":"Point","coordinates":[134.05375,34.2107]},"properties":{"#property":"8","name":"高松市下谷農村公園","address":"高松市香川町東谷637","building":"便所12㎡","note":"","":"","_1":"","_2":"","_3":"","_4":"","_5":"","_6":"","_7":"","_8":"","_9":"","_10":"","_11":"","_12":"","_13":"","_14":"","_15":"","_16":"","_17":"","_18":"","_19":""}},{"type":"Feature","geometry":{"type":"Point","coordinates":[133.9943,34.2513]},"properties":{"#property":"9","name":"高松市小鵜生原広場","address":"高松市香南町池内1015","building":"-","note":"","":"","_1":"","_2":"","_3":"","_4":"","_5":"","_6":"","_7":"","_8":"","_9":"","_10":"","_11":"","_12":"","_13":"","_14":"","_15":"","_16":"","_17":"","_18":"","_19":""}},{"type":"Feature","geometry":{"type":"Point","coordinates":[134.00829,34.23825]},"properties":{"#property":"10","name":"高松市大上親水公園","address":"高松市香南町由佐1435-1","building":"東屋２棟","note":"駐車場有","":"","_1":"","_2":"","_3":"","_4":"","_5":"","_6":"","_7":"","_8":"","_9":"","_10":"","_11":"","_12":"","_13":"","_14":"","_15":"","_16":"","_17":"","_18":"","_19":""}},{"type":"Feature","geometry":{"type":"Point","coordinates":[134.00713,34.24355]},"properties":{"#property":"11","name":"高松市香南中央農村公園","address":"高松市香南町横井823","building":"便所","note":"駐車場有\n（隣接駐車場、香南体育館）","":"","_1":"","_2":"","_3":"","_4":"","_5":"","_6":"","_7":"","_8":"","_9":"","_10":"","_11":"","_12":"","_13":"","_14":"","_15":"","_16":"","_17":"","_18":"","_19":""}},{"type":"Feature","geometry":{"type":"Point","coordinates":[133.97084,34.30868]},"properties":{"#property":"12","name":"高松市新居宮池親水公園","address":"高松市国分寺町新居3332-1","building":"水上展望台","note":"駐車場有","":"","_1":"","_2":"","_3":"","_4":"","_5":"","_6":"","_7":"","_8":"","_9":"","_10":"","_11":"","_12":"","_13":"","_14":"","_15":"","_16":"","_17":"","_18":"","_19":""}}]}