{"type":"FeatureCollection","features":[{"type":"Feature","geometry":{"type":"Point","coordinates":[134.03079639,34.33776639]},"properties":{"#property":"1","name":"高松市摺鉢谷墓地","address":"高松市宮脇町二丁目37-16","telephoneNumber":"","referenceObject":"","note":""}},{"type":"Feature","geometry":{"type":"Point","coordinates":[134.03471556,34.33186417]},"properties":{"#property":"2","name":"高松市宮脇町姥ヶ池墓地","address":"高松市宮脇町二丁目996","telephoneNumber":"","referenceObject":"","note":""}},{"type":"Feature","geometry":{"type":"Point","coordinates":[134.03373833,34.3315625]},"properties":{"#property":"3","name":"高松市姥ヶ池西墓地","address":"高松市宮脇町二丁目998","telephoneNumber":"","referenceObject":"","note":""}},{"type":"Feature","geometry":{"type":"Point","coordinates":[134.03561667,34.33149194]},"properties":{"#property":"4","name":"高松市姥ヶ池東墓地","address":"高松市宮脇町二丁目10-56","telephoneNumber":"","referenceObject":"","note":""}},{"type":"Feature","geometry":{"type":"Point","coordinates":[134.03325583,34.33382833]},"properties":{"#property":"5","name":"高松市紫雲墓地","address":"高松市宮脇町二丁目994-25","telephoneNumber":"","referenceObject":"","note":""}},{"type":"Feature","geometry":{"type":"Point","coordinates":[134.0283425,34.33657194]},"properties":{"#property":"6","name":"高松市峰山墓地","address":"高松市西宝町二丁目844-43","telephoneNumber":"","referenceObject":"","note":""}},{"type":"Feature","geometry":{"type":"Point","coordinates":[134.02993083,34.33920444]},"properties":{"#property":"7","name":"高松市本門院墓地","address":"高松市西宝町二丁目4-4","telephoneNumber":"","referenceObject":"","note":""}},{"type":"Feature","geometry":{"type":"Point","coordinates":[134.05362,34.32467833]},"properties":{"#property":"8","name":"高松市柳三昧北墓地","address":"高松市桜町二丁目17-3","telephoneNumber":"","referenceObject":"","note":""}},{"type":"Feature","geometry":{"type":"Point","coordinates":[134.05303194,34.32480861]},"properties":{"#property":"9","name":"高松市柳三昧墓地","address":"高松市桜町二丁目15-37","telephoneNumber":"","referenceObject":"","note":""}},{"type":"Feature","geometry":{"type":"Point","coordinates":[134.05996306,34.3304175]},"properties":{"#property":"10","name":"高松市楠川墓地","address":"高松市上福岡町2003-7","telephoneNumber":"","referenceObject":"","note":""}},{"type":"Feature","geometry":{"type":"Point","coordinates":[134.07439333,34.34066083]},"properties":{"#property":"11","name":"高松市沖松島墓地","address":"高松市福岡町四丁目35-20","telephoneNumber":"","referenceObject":"","note":""}},{"type":"Feature","geometry":{"type":"Point","coordinates":[134.12916472,34.3418]},"properties":{"#property":"12","name":"高松市西林寺墓地","address":"高松市牟礼町牟礼917-2","telephoneNumber":"","referenceObject":"","note":""}},{"type":"Feature","geometry":{"type":"Point","coordinates":[134.1356975,34.34517028]},"properties":{"#property":"13","name":"高松市岡ノ山墓地","address":"高松市牟礼町牟礼1307","telephoneNumber":"","referenceObject":"","note":""}},{"type":"Feature","geometry":{"type":"Point","coordinates":[134.14260111,34.34401583]},"properties":{"#property":"14","name":"高松市田井墓地","address":"高松市牟礼町牟礼1587-9","telephoneNumber":"","referenceObject":"","note":""}},{"type":"Feature","geometry":{"type":"Point","coordinates":[134.13687389,34.35120639]},"properties":{"#property":"15","name":"高松市松井谷墓地","address":"高松市牟礼町牟礼1701-1","telephoneNumber":"","referenceObject":"","note":""}},{"type":"Feature","geometry":{"type":"Point","coordinates":[134.12934306,34.36187389]},"properties":{"#property":"16","name":"高松市久通墓地","address":"高松市牟礼町牟礼3442-14","telephoneNumber":"","referenceObject":"","note":""}},{"type":"Feature","geometry":{"type":"Point","coordinates":[134.14746639,34.34025306]},"properties":{"#property":"17","name":"高松市焼野墓地","address":"高松市牟礼町大町626","telephoneNumber":"","referenceObject":"","note":""}},{"type":"Feature","geometry":{"type":"Point","coordinates":[134.15394583,34.33885194]},"properties":{"#property":"18","name":"高松市北三昧墓地","address":"高松市牟礼町大町985","telephoneNumber":"","referenceObject":"","note":""}},{"type":"Feature","geometry":{"type":"Point","coordinates":[134.15526861,34.33742056]},"properties":{"#property":"19","name":"高松市南三昧墓地","address":"高松市牟礼町大町1005","telephoneNumber":"","referenceObject":"","note":""}},{"type":"Feature","geometry":{"type":"Point","coordinates":[134.14246056,34.33905556]},"properties":{"#property":"20","name":"高松市焼背ヶ原墓地","address":"高松市牟礼町大町2420","telephoneNumber":"","referenceObject":"","note":""}},{"type":"Feature","geometry":{"type":"Point","coordinates":[134.14622944,34.33524139]},"properties":{"#property":"21","name":"高松市鐙田墓地","address":"高松市牟礼町大町2442-1","telephoneNumber":"","referenceObject":"","note":""}},{"type":"Feature","geometry":{"type":"Point","coordinates":[134.13418056,34.33538972]},"properties":{"#property":"22","name":"高松市丹僧墓地","address":"高松市牟礼町大町2560","telephoneNumber":"","referenceObject":"","note":""}},{"type":"Feature","geometry":{"type":"Point","coordinates":[134.16079667,34.32106667]},"properties":{"#property":"23","name":"高松市浜三昧墓地","address":"高松市牟礼町原210-6","telephoneNumber":"","referenceObject":"","note":""}},{"type":"Feature","geometry":{"type":"Point","coordinates":[134.15213611,34.32632611]},"properties":{"#property":"24","name":"高松市鋸ノ鼻墓地","address":"高松市牟礼町原1515","telephoneNumber":"","referenceObject":"","note":""}},{"type":"Feature","geometry":{"type":"Point","coordinates":[134.13678972,34.38980139]},"properties":{"#property":"25","name":"高松市北村共同墓地","address":"高松市庵治町1443","telephoneNumber":"","referenceObject":"","note":""}},{"type":"Feature","geometry":{"type":"Point","coordinates":[134.04868639,34.25910528]},"properties":{"#property":"26","name":"高松市浅野墓地公園","address":"高松市香川町浅野2845","telephoneNumber":"","referenceObject":"","note":""}},{"type":"Feature","geometry":{"type":"Point","coordinates":[133.97368083,34.30312111]},"properties":{"#property":"27","name":"高松市新居大谷公園墓地","address":"高松市国分寺町新居223-1","telephoneNumber":"","referenceObject":"","note":""}},{"type":"Feature","geometry":{"type":"Point","coordinates":[133.95901361,34.31440028]},"properties":{"#property":"28","name":"高松市川西公園墓地","address":"高松市国分寺町新居3845-1","telephoneNumber":"","referenceObject":"","note":""}},{"type":"Feature","geometry":{"type":"Point","coordinates":[134.07571056,34.26100722]},"properties":{"#property":"29","name":"高松市平和公園","address":"高松市三谷町2851-1","telephoneNumber":"087-889-0938","referenceObject":"","note":""}},{"type":"Feature","geometry":{"type":"Point","coordinates":[134.0761375,34.26025278]},"properties":{"#property":"30","name":"高松市平和公園合葬式墓地","address":"高松市三谷町2851-1","telephoneNumber":"087-889-0938","referenceObject":"http://www.city.takamatsu.kagawa.jp/kurashi/kurashi/bochi/about/moushikomi.html","note":""}},{"type":"Feature","geometry":{"type":"Point","coordinates":[133.97270611,34.28977556]},"properties":{"#property":"31","name":"高松市六ツ目公園","address":"高松市国分寺町福家39-1","telephoneNumber":"","referenceObject":"","note":""}}]}