{"type":"FeatureCollection","features":[{"type":"Feature","geometry":{"type":"Point","coordinates":[134.0347836,34.33546278]},"properties":{"#property":"1","name":"ケアサポート長谷川（中央西）","address":"高松市宮脇町二丁目26-12","telephoneNumber":"","referenceObject":"","note":"","service":"小規模多機能型居宅介護","availableDate":"","startTime":"","endTime":"","availableDateNote":"","capacity":""}},{"type":"Feature","geometry":{"type":"Point","coordinates":[134.0663553,34.34519278]},"properties":{"#property":"2","name":"ケアサポート長谷川（中央東）","address":"高松市福岡町二丁目16-6　福岡事業所１階","telephoneNumber":"","referenceObject":"","note":"","service":"小規模多機能型居宅介護","availableDate":"","startTime":"","endTime":"","availableDateNote":"","capacity":""}},{"type":"Feature","geometry":{"type":"Point","coordinates":[134.0029683,34.28475389]},"properties":{"#property":"3","name":"えんざ","address":"高松市西山崎町196-2","telephoneNumber":"","referenceObject":"","note":"","service":"小規模多機能型居宅介護","availableDate":"","startTime":"","endTime":"","availableDateNote":"","capacity":""}},{"type":"Feature","geometry":{"type":"Point","coordinates":[134.0749803,34.3215625]},"properties":{"#property":"4","name":"小規模多機能ホームたんぽぽの家","address":"高松市木太町1539-8","telephoneNumber":"","referenceObject":"","note":"","service":"小規模多機能型居宅介護","availableDate":"","startTime":"","endTime":"","availableDateNote":"","capacity":""}},{"type":"Feature","geometry":{"type":"Point","coordinates":[134.1022917,34.31648028]},"properties":{"#property":"5","name":"ケアサポート長谷川（古高松）","address":"高松市新田町甲2181-1","telephoneNumber":"","referenceObject":"","note":"","service":"小規模多機能型居宅介護","availableDate":"","startTime":"","endTime":"","availableDateNote":"","capacity":""}},{"type":"Feature","geometry":{"type":"Point","coordinates":[134.0891589,34.35848056]},"properties":{"#property":"6","name":"小規模多機能施設　富士","address":"高松市屋島西町2277-4","telephoneNumber":"","referenceObject":"","note":"","service":"小規模多機能型居宅介護","availableDate":"","startTime":"","endTime":"","availableDateNote":"","capacity":""}},{"type":"Feature","geometry":{"type":"Point","coordinates":[134.0994817,34.2964575]},"properties":{"#property":"7","name":"多機能型施設  邑","address":"高松市前田西町1080-18","telephoneNumber":"","referenceObject":"","note":"","service":"小規模多機能型居宅介護","availableDate":"","startTime":"","endTime":"","availableDateNote":"","capacity":""}},{"type":"Feature","geometry":{"type":"Point","coordinates":[134.0882281,34.27412639]},"properties":{"#property":"8","name":"香川県高齢者生活協同組合「ひだまり川島」","address":"高松市川島東町925-1","telephoneNumber":"","referenceObject":"","note":"","service":"小規模多機能型居宅介護","availableDate":"","startTime":"","endTime":"","availableDateNote":"","capacity":""}},{"type":"Feature","geometry":{"type":"Point","coordinates":[134.0755206,34.27728694]},"properties":{"#property":"9","name":"やまぶき小規模多機能型居宅介護事業所","address":"高松市三谷町316","telephoneNumber":"","referenceObject":"","note":"","service":"小規模多機能型居宅介護","availableDate":"","startTime":"","endTime":"","availableDateNote":"","capacity":""}},{"type":"Feature","geometry":{"type":"Point","coordinates":[133.9730411,34.35680056]},"properties":{"#property":"10","name":"在宅サポートセンター　ハピネス","address":"高松市中山町772-1","telephoneNumber":"","referenceObject":"","note":"","service":"小規模多機能型居宅介護","availableDate":"","startTime":"","endTime":"","availableDateNote":"","capacity":""}},{"type":"Feature","geometry":{"type":"Point","coordinates":[134.1599506,34.32090611]},"properties":{"#property":"11","name":"小規模多機能型施設  侶","address":"高松市牟礼町原216-5","telephoneNumber":"","referenceObject":"","note":"","service":"小規模多機能型居宅介護","availableDate":"","startTime":"","endTime":"","availableDateNote":"","capacity":""}},{"type":"Feature","geometry":{"type":"Point","coordinates":[134.02725,34.264656]},"properties":{"#property":"12","name":"多機能ホーム　ひまわり","address":"高松市香川町大野901-1","telephoneNumber":"","referenceObject":"","note":"","service":"小規模多機能型居宅介護","availableDate":"","startTime":"","endTime":"","availableDateNote":"","capacity":""}}]}