{"type":"FeatureCollection","features":[{"type":"Feature","geometry":{"type":"Point","coordinates":[134.04654,34.34277]},"properties":{"#property":"1","name":"高松市消防局","address":"高松市番町一丁目8-15","telephoneNumber":"087-861-2500","referenceObject":"http://www.city.takamatsu.kagawa.jp/kurashi/kurashi/shobo/shobo/shobokyoku/index.html","note":""}},{"type":"Feature","geometry":{"type":"Point","coordinates":[134.03884,34.33875]},"properties":{"#property":"2","name":"高松市北消防署","address":"高松市宮脇町一丁目2-34","telephoneNumber":"087-861-1551","referenceObject":"http://www.city.takamatsu.kagawa.jp/kurashi/kurashi/shobo/shobo/shobokyoku/kakuka/kita/index.html","note":""}},{"type":"Feature","geometry":{"type":"Point","coordinates":[134.06496,34.34755]},"properties":{"#property":"3","name":"高松市北消防署朝日分署","address":"高松市朝日町二丁目1-39","telephoneNumber":"087-822-1419","referenceObject":"http://www.city.takamatsu.kagawa.jp/kurashi/kurashi/shobo/shobo/shobokyoku/kakuka/kita/kita_asahi/index.html","note":""}},{"type":"Feature","geometry":{"type":"Point","coordinates":[134.05921,34.30317]},"properties":{"#property":"4","name":"高松市南消防署","address":"高松市多肥下町1530-16","telephoneNumber":"087-815-0119","referenceObject":"http://www.city.takamatsu.kagawa.jp/kurashi/kurashi/shobo/shobo/shobokyoku/kakuka/minami/index.html","note":""}},{"type":"Feature","geometry":{"type":"Point","coordinates":[134.0347,34.23345]},"properties":{"#property":"5","name":"高松市南消防署香川分署","address":"高松市香川町川東上947-1","telephoneNumber":"087-879-4111","referenceObject":"http://www.city.takamatsu.kagawa.jp/kurashi/kurashi/shobo/shobo/shobokyoku/kakuka/minami/kagawa/index.html","note":""}},{"type":"Feature","geometry":{"type":"Point","coordinates":[134.01056,34.29133]},"properties":{"#property":"6","name":"高松市南消防署円座出張所","address":"高松市円座町1035-1","telephoneNumber":"087-886-6145","referenceObject":"http://www.city.takamatsu.kagawa.jp/kurashi/kurashi/shobo/shobo/shobokyoku/kakuka/minami/enza.html","note":""}},{"type":"Feature","geometry":{"type":"Point","coordinates":[134.08253,34.17001]},"properties":{"#property":"7","name":"高松市南消防署塩江出張所","address":"高松市塩江町安原上東390-1","telephoneNumber":"087-840-6220","referenceObject":"http://www.city.takamatsu.kagawa.jp/kurashi/kurashi/shobo/shobo/shobokyoku/kakuka/minami/shioe.html","note":""}},{"type":"Feature","geometry":{"type":"Point","coordinates":[134.03959,34.31981]},"properties":{"#property":"8","name":"高松市南消防署東ハゼ救急ステーション","address":"高松市東ハゼ町17-8","telephoneNumber":"087-815-0124","referenceObject":"http://www.city.takamatsu.kagawa.jp/kurashi/kurashi/shobo/shobo/shobokyoku/kakuka/minami/higashihaze.html","note":""}},{"type":"Feature","geometry":{"type":"Point","coordinates":[134.10602,34.32608]},"properties":{"#property":"9","name":"高松市東消防署","address":"高松市新田町甲984-1","telephoneNumber":"087-843-5119","referenceObject":"http://www.city.takamatsu.kagawa.jp/kurashi/kurashi/shobo/shobo/shobokyoku/kakuka/higashi/index.html","note":""}},{"type":"Feature","geometry":{"type":"Point","coordinates":[134.12335,34.35646]},"properties":{"#property":"10","name":"高松市東消防署牟礼分署","address":"高松市牟礼町牟礼3720-328","telephoneNumber":"087-845-1255","referenceObject":"http://www.city.takamatsu.kagawa.jp/kurashi/kurashi/shobo/shobo/shobokyoku/kakuka/higashi/mure.html","note":""}},{"type":"Feature","geometry":{"type":"Point","coordinates":[134.08527,34.27608]},"properties":{"#property":"11","name":"高松市東消防署山田出張所","address":"高松市川島本町191-3","telephoneNumber":"087-848-0823","referenceObject":"http://www.city.takamatsu.kagawa.jp/kurashi/kurashi/shobo/shobo/shobokyoku/kakuka/higashi/yamada.html","note":""}},{"type":"Feature","geometry":{"type":"Point","coordinates":[133.99766,34.33939]},"properties":{"#property":"12","name":"高松市西消防署","address":"高松市香西南町603-1","telephoneNumber":"087-881-0119","referenceObject":"http://www.city.takamatsu.kagawa.jp/kurashi/kurashi/shobo/shobo/shobokyoku/kakuka/nishi/index.html","note":""}},{"type":"Feature","geometry":{"type":"Point","coordinates":[133.96136,34.28979]},"properties":{"#property":"13","name":"高松市西消防署国分寺出張所","address":"高松市国分寺町新名695-4","telephoneNumber":"087-874-1119","referenceObject":"http://www.city.takamatsu.kagawa.jp/kurashi/kurashi/shobo/shobo/shobokyoku/kakuka/nishi/kokubunji.html","note":""}}]}