"#property","latitude","longitude","name","address","telephoneNumber","referenceObject","note","availableDate","startTime","endTime","availableDateNote"
"2","34.1963675","134.04155944","塩江支所","高松市塩江町安原下第2号1645","087-897-0131","http://www.city.takamatsu.kagawa.jp/kurashi/kurashi/shisetsu/shisho/sougou_center.html",,"月火水木金","08:30","17:00","国民の祝日に関する法律に規定する休日及び年末年始（１２月２９日から翌年の１月３日まで）は利用不可。"
"3","34.3840175","134.12656556","庵治支所","高松市庵治町6393-5","087-871-3111","http://www.city.takamatsu.kagawa.jp/kurashi/kurashi/shisetsu/shisho/sougou_center.html",,"月火水木金","08:30","17:00","国民の祝日に関する法律に規定する休日及び年末年始（１２月２９日から翌年の１月３日まで）は利用不可。"
"4","34.24001194","134.01306889","香南支所","高松市香南町由佐1172","087-879-3111","http://www.city.takamatsu.kagawa.jp/kurashi/kurashi/shisetsu/shisho/sougou_center.html",,"月火水木金","08:30","17:00","国民の祝日に関する法律に規定する休日及び年末年始（１２月２９日から翌年の１月３日まで）は利用不可。"
"5","34.1697325","134.08280667","塩江支所　塩江連絡事務所","高松市塩江町安原上東394-2","087-893-0220","http://www.city.takamatsu.kagawa.jp/kurashi/kurashi/shisetsu/shisho/sougou_center.html",,"月火水木金","08:30","17:00","国民の祝日に関する法律に規定する休日及び年末年始（１２月２９日から翌年の１月３日まで）は利用不可。"
"6","34.15046528","134.07662167","塩江支所　上西連絡事務所","高松市塩江町上西乙549","087-893-0311","http://www.city.takamatsu.kagawa.jp/kurashi/kurashi/shisetsu/shisho/sougou_center.html",,"月火水木金","08:30","17:00","国民の祝日に関する法律に規定する休日及び年末年始（１２月２９日から翌年の１月３日まで）は利用不可。"
