{"type":"FeatureCollection","features":[{"type":"Feature","geometry":{"type":"Point","coordinates":[134.06521694,34.35965667]},"properties":{"#property":"1","name":"高松市朝日新町学校給食センター","address":"高松市朝日新町26-25","telephoneNumber":"087-811-6300","referenceObject":"","note":""}},{"type":"Feature","geometry":{"type":"Point","coordinates":[134.09266,34.26666278]},"properties":{"#property":"2","name":"高松市立山田学校給食共同調理場","address":"高松市川島東町1254","telephoneNumber":"087-848-0168","referenceObject":"","note":""}},{"type":"Feature","geometry":{"type":"Point","coordinates":[134.14251278,34.33569528]},"properties":{"#property":"3","name":"高松市立牟礼学校給食共同調理場","address":"高松市牟礼町大町1576-1","telephoneNumber":"087-845-2571","referenceObject":"","note":""}},{"type":"Feature","geometry":{"type":"Point","coordinates":[134.13048139,34.3844225]},"properties":{"#property":"4","name":"高松市立庵治学校給食共同調理場","address":"高松市庵治町782-2","telephoneNumber":"087-871-2247","referenceObject":"","note":""}},{"type":"Feature","geometry":{"type":"Point","coordinates":[134.03288722,34.24981944]},"properties":{"#property":"5","name":"高松市立香川学校給食共同調理場","address":"高松市香川町浅野1283-3","telephoneNumber":"087-879-5387","referenceObject":"","note":""}},{"type":"Feature","geometry":{"type":"Point","coordinates":[134.00746361,34.24309222]},"properties":{"#property":"6","name":"高松市立香南学校給食共同調理場","address":"高松市香南町横井800-1","telephoneNumber":"087-879-2179","referenceObject":"","note":""}},{"type":"Feature","geometry":{"type":"Point","coordinates":[134.078751,34.295993]},"properties":{"#property":"7","name":"高松市六条町学校給食センター","address":"高松市六条町700番地","telephoneNumber":"087-865-1060","referenceObject":"","note":""}}]}